{
"type": "FeatureCollection",
"name": "Bike Shops",
"crs": { "type": "name", "properties": { "name": "urn:ogc:def:crs:EPSG::3443" } },
"features": [
{ "type": "Feature", "properties": { "Name": "Addison Cycle & Fitness Inc", "Address": "2803 Butterfield Road #380", "City": "Oak Brook", "Zip": 60523, "Lat": 41.84358477, "Long": -87.98726121, "Web_URL": null, "Hours": null, "Bike_Parki": null, "Notes": null, "Active": null }, "geometry": { "type": "Point", "coordinates": [ 1078546.8893, 1885782.4289 ] } },
{ "type": "Feature", "properties": { "Name": "Bicycles Etc.", "Address": "6460 College Rd", "City": "Lisle", "Zip": 60532, "Lat": 41.76794787, "Long": -88.09968675, "Web_URL": "http:\/\/www.bicyclesetc-il.com\/", "Hours": "M, W, F: 10-8.  T, TH:  10-5.  Sa: 9-5, Su: 12-4", "Bike_Parki": "Yes", "Notes": null, "Active": null }, "geometry": { "type": "Point", "coordinates": [ 1047988.3507, 1858117.5764 ] } },
{ "type": "Feature", "properties": { "Name": "Bicycles Etc.", "Address": "536 S State Route 59", "City": "Naperville", "Zip": 60540, "Lat": 41.76006721, "Long": -88.20210154, "Web_URL": "http:\/\/www.bicyclesetc-il.com\/", "Hours": "M, W, F: 10-8.  T, TH:  10-5.  Sa: 9-5, Su: 12-4", "Bike_Parki": "Yes", "Notes": null, "Active": null }, "geometry": { "type": "Point", "coordinates": [ 1020054.1612, 1855186.6952 ] } },
{ "type": "Feature", "properties": { "Name": "The Bike Hub", "Address": "495 N. Main St", "City": "Glen Ellyn", "Zip": 60137, "Lat": 41.87718429, "Long": -88.06642621, "Web_URL": "http:\/\/thebikehub.net\/", "Hours": "T-F: 10-6, Sa: 10-5", "Bike_Parki": "No", "Notes": null, "Active": "Existing" }, "geometry": { "type": "Point", "coordinates": [ 1056938.1215, 1897948.9623 ] } },
{ "type": "Feature", "properties": { "Name": "Endure It! Naperville", "Address": "504 W 5th Ave", "City": "Naperville", "Zip": 60563, "Lat": 41.78056596, "Long": -88.15535713, "Web_URL": "https:\/\/www.endureitsports.com\/", "Hours": "M,W,Th, F: 10-6, T: 12-8, SA: 10-4", "Bike_Parki": "No", "Notes": null, "Active": null }, "geometry": { "type": "Point", "coordinates": [ 1032792.0543, 1862679.1395 ] } },
{ "type": "Feature", "properties": { "Name": "Endure It! Westmont", "Address": "37 W Quincy St", "City": "Westmont", "Zip": 60559, "Lat": 41.79510208, "Long": -87.97752124, "Web_URL": "https:\/\/www.endureitsports.com\/", "Hours": "M,W,Th, F: 10-6, T: 12-8, SA: 10-4", "Bike_Parki": "No", "Notes": null, "Active": "Existing" }, "geometry": { "type": "Point", "coordinates": [ 1081273.9738, 1868126.5141 ] } },
{ "type": "Feature", "properties": { "Name": "Hartley's Cycle Shop", "Address": "24 W Hinsdale Ave", "City": "Hinsdale", "Zip": 60521, "Lat": 41.80217131, "Long": -87.93040131, "Web_URL": "http:\/\/hartleyscycle.com\/", "Hours": "M-F: 11-6, SA: 9-5", "Bike_Parki": "No", "Notes": null, "Active": "Planned" }, "geometry": { "type": "Point", "coordinates": [ 1094110.7322, 1870759.1847 ] } },
{ "type": "Feature", "properties": { "Name": "J & R Cycle & Ski", "Address": "240 St Charles Rd", "City": "Villa Park", "Zip": 60181, "Lat": 41.88992809, "Long": -87.98595353, "Web_URL": "http:\/\/jandrcycleandski.com\/", "Hours": "M, Th: 10-8, T, W, F: 10-6, Sa: 10-5", "Bike_Parki": "No", "Notes": null, "Active": "Existing" }, "geometry": { "type": "Point", "coordinates": [ 1078834.871, 1902671.1914 ] } },
{ "type": "Feature", "properties": { "Name": "Koslow Cycle", "Address": "21W415 North Ave", "City": "Lombard", "Zip": 60148, "Lat": 41.90359651, "Long": -88.04252122, "Web_URL": "http:\/\/www.koslowcycle.com\/", "Hours": "M: 9-8, T-F: 9-6, Sa: 9-5", "Bike_Parki": "Yes", "Notes": null, "Active": "Existing" }, "geometry": { "type": "Point", "coordinates": [ 1063415.6735, 1907594.6553 ] } },
{ "type": "Feature", "properties": { "Name": "Midwest Cyclery", "Address": "117 E Front St", "City": "Wheaton", "Zip": 60187, "Lat": 41.86509895, "Long": -88.10574819, "Web_URL": "http:\/\/www.midwestcyclery.com\/", "Hours": "M-W: 11-6, Th: 11-7, F: 11-6, Sa: 11-4", "Bike_Parki": "Yes", "Notes": null, "Active": "Existing" }, "geometry": { "type": "Point", "coordinates": [ 1046241.0432, 1893514.2661 ] } },
{ "type": "Feature", "properties": { "Name": "Performance Bicycle", "Address": "2830 South Highland Ave", "City": "Lombard", "Zip": 60148, "Lat": 41.83571511, "Long": -88.01284447, "Web_URL": "http:\/\/www.performancebike.com\/bike-shop\/store\/lombard?utm_source=local&utm_medium=organic%20&utm_campaign=gmb", "Hours": "M-F: 11-7, Sa: 10-6, Su: 11-6", "Bike_Parki": "No", "Notes": null, "Active": null }, "geometry": { "type": "Point", "coordinates": [ 1071586.7182, 1882887.7195 ] } },
{ "type": "Feature", "properties": { "Name": "Performance Bicycle", "Address": "428 S State Route 59 Ste 106", "City": "Naperville", "Zip": 60540, "Lat": 41.76446452, "Long": -88.20377436, "Web_URL": "http:\/\/www.performancebike.com\/bike-shop\/store\/naperville?utm_source=local&utm_medium=organic%20&utm_campaign=gmb", "Hours": "M-F: 11-7, Sa: 10-6, Su: 11-6", "Bike_Parki": "No", "Notes": null, "Active": "Planned" }, "geometry": { "type": "Point", "coordinates": [ 1019595.3494, 1856788.333 ] } },
{ "type": "Feature", "properties": { "Name": "Prairie Path Cycles", "Address": "27W181 Geneva Rd", "City": "Winfield", "Zip": 60190, "Lat": 41.88675988, "Long": -88.15118611, "Web_URL": "http:\/\/prairiepathcycles.com\/", "Hours": "M, Th: 11-7, W, F: 11-6, Sa: 10-5, Su: 11-4", "Bike_Parki": "Yes", "Notes": null, "Active": "Existing" }, "geometry": { "type": "Point", "coordinates": [ 1033847.6293, 1901377.8902 ] } },
{ "type": "Feature", "properties": { "Name": "REI", "Address": "17W160 22nd St", "City": "Oakbrook Terrace", "Zip": 60181, "Lat": 41.84718575, "Long": -87.96144632, "Web_URL": "https:\/\/www.rei.com\/stores\/oakbrook-terrace.html", "Hours": "M-F: 10-9, Sa: 9-9, Su: 10-7", "Bike_Parki": "No", "Notes": null, "Active": null }, "geometry": { "type": "Point", "coordinates": [ 1085575.1984, 1887124.0043 ] } },
{ "type": "Feature", "properties": { "Name": "Spokes", "Address": "1807 S Washington St Suite 112", "City": "Naperville", "Zip": 60565, "Lat": 41.73562817, "Long": -88.12978491, "Web_URL": "http:\/\/spokesbikes.com\/", "Hours": "M-Th: 11-7, F: 11-6, Sa: 10-6, Su: 12-4", "Bike_Parki": "No", "Notes": null, "Active": null }, "geometry": { "type": "Point", "coordinates": [ 1039805.4855, 1846319.7893 ] } },
{ "type": "Feature", "properties": { "Name": "Spokes", "Address": "69 Danada Sq E", "City": "Wheaton", "Zip": 60187, "Lat": 41.83118443, "Long": -88.10121027, "Web_URL": "http:\/\/spokesbikes.com\/", "Hours": "M-Th: 11-7, F: 11-6, Sa: 10-6, Su: 12-4", "Bike_Parki": "No", "Notes": null, "Active": null }, "geometry": { "type": "Point", "coordinates": [ 1047510.5157, 1881159.3096 ] } },
{ "type": "Feature", "properties": { "Name": "Stemples Cycle", "Address": "494 S Spring Rd", "City": "Elmhurst", "Zip": 60126, "Lat": 41.88586979, "Long": -87.94981176, "Web_URL": "https:\/\/stemplesbikeshop.com\/", "Hours": "Th-F: 10-6, Sa: 10-5", "Bike_Parki": "No", "Notes": null, "Active": "Existing" }, "geometry": { "type": "Point", "coordinates": [ 1088682.2066, 1901234.2651 ] } },
{ "type": "Feature", "properties": { "Name": "Trek Bicycle Store", "Address": "639 Ogden Ave", "City": "Downers Grove", "Zip": 60515, "Lat": 41.80907843, "Long": -88.00202198, "Web_URL": "http:\/\/www.trekchicago.com\/", "Hours": "M-F: 11-7, Sa: 10-5, Su: 12-4", "Bike_Parki": "No", "Notes": null, "Active": null }, "geometry": { "type": "Point", "coordinates": [ 1074573.395, 1873192.6815 ] } },
{ "type": "Feature", "properties": { "Name": "Urban Tri Gear", "Address": "804 E Ogden Ave", "City": "Westmont", "Zip": 60559, "Lat": 41.81195711, "Long": -87.95042386, "Web_URL": "http:\/\/urbantrigear.com\/", "Hours": "M-Th: 10-6:30, F: 10-6, Sa: 10-3, Su: 11-2", "Bike_Parki": null, "Notes": null, "Active": "Existing" }, "geometry": { "type": "Point", "coordinates": [ 1088635.6234, 1874300.1015 ] } },
{ "type": "Feature", "properties": { "Name": "RTT Cycle Shop", "Address": "5116 - B Main St", "City": "Downers Grove", "Zip": 60515, "Lat": -88.010873, "Long": 41.794347, "Web_URL": "http:\/\/www.rttcycleshop.com\/", "Hours": "M-W & F: 10am-6pm. Th: 10am-7pm.  Sa: 10am-3pm", "Bike_Parki": "No", "Notes": "Shop entrance is on alley, not on Main St.", "Active": "Existing" }, "geometry": { "type": "Point", "coordinates": [ 1072172.6095, 1867814.933 ] } }
]
}
